[
    {
      "entity_type": "city",
      "entity_id": 4,
      "title": "Bangalore",
      "latitude": 12.971606,
      "longitude": 77.594376,
      "city_id": 4,
      "city_name": "Bengaluru",
      "country_id": 1,
      "country_name": "India"
    },
       {
      "entity_type": "city",
      "entity_id": 3,
      "title": "Mumbai",
      "latitude": 19.017656,
      "longitude": 72.856178,
      "city_id": 3,
      "city_name": "Mumbai",
      "country_id": 1,
      "country_name": "India"
    },
     {
      "entity_type": "city",
      "entity_id": 1,
      "title": "Delhi NCR",
      "latitude": 28.625789,
      "longitude": 77.210276,
      "city_id": 1,
      "city_name": "Delhi NCR",
      "country_id": 1,
      "country_name": "India"
    },
     {
      "entity_type": "city",
      "entity_id": 5,
      "title": "Pune",
      "latitude": 18.520469,
      "longitude": 73.85662,
      "city_id": 5,
      "city_name": "Pune",
      "country_id": 1,
      "country_name": "India"
    },
     {
      "entity_type": "city",
      "entity_id": 6,
      "title": "Hyderabad",
      "latitude": 17.366,
      "longitude": 78.476,
      "city_id": 6,
      "city_name": "Hyderabad",
      "country_id": 1,
      "country_name": "India"
    }
]